[{
	"id": 1832008,
	"name": "Tokusan-ri",
	"lat": 35.133331,
	"lon": 128.699997
}, {
	"id": 1832015,
	"name": "Heunghae",
	"lat": 36.112499,
	"lon": 129.352219
}, {
	"id": 1832157,
	"name": "Reisui",
	"lat": 34.744171,
	"lon": 127.737778
}, {
	"id": 1832215,
	"name": "Yeonil",
	"lat": 35.994171,
	"lon": 129.345001
}, {
	"id": 1832257,
	"name": "Neietsu",
	"lat": 37.184471,
	"lon": 128.468216
}, {
	"id": 1832384,
	"name": "Eisen",
	"lat": 36.821671,
	"lon": 128.630829
}, {
	"id": 1832427,
	"name": "Yongin",
	"lat": 37.234169,
	"lon": 127.20639
}, {
	"id": 1832501,
	"name": "Yeonggwang",
	"lat": 35.275002,
	"lon": 126.509438
}, {
	"id": 1832566,
	"name": "Yeongdong",
	"lat": 36.174999,
	"lon": 127.77639
}, {
	"id": 1832617,
	"name": "Eisen",
	"lat": 35.967499,
	"lon": 128.930832
}, {
	"id": 1832663,
	"name": "Yeongam-guncheong",
	"lat": 34.798328,
	"lon": 126.699997
}, {
	"id": 1832697,
	"name": "Yeoncheon-gun",
	"lat": 38.09404,
	"lon": 127.075768
}, {
	"id": 1832743,
	"name": "Yeoju",
	"lat": 37.29583,
	"lon": 127.633888
}, {
	"id": 1832771,
	"name": "Yesan",
	"lat": 36.677559,
	"lon": 126.84272
}, {
	"id": 1832798,
	"name": "Yecheon",
	"lat": 36.65556,
	"lon": 128.45694
}, {
	"id": 1832809,
	"name": "Yangyang",
	"lat": 38.073891,
	"lon": 128.621109
}, {
	"id": 1832828,
	"name": "Yangsan",
	"lat": 35.338612,
	"lon": 129.038605
}, {
	"id": 1832830,
	"name": "Yangp'yŏng",
	"lat": 37.489719,
	"lon": 127.490562
}, {
	"id": 1832847,
	"name": "Yangju",
	"lat": 37.833111,
	"lon": 127.061691
}, {
	"id": 1832909,
	"name": "Yanggu",
	"lat": 38.105831,
	"lon": 127.989441
}, {
	"id": 1832973,
	"name": "Yach’on",
	"lat": 35.13028,
	"lon": 126.815826
}, {
	"id": 1833105,
	"name": "Wŏnju",
	"lat": 37.351391,
	"lon": 127.945282
}, {
	"id": 1833466,
	"name": "Wanju",
	"lat": 35.845089,
	"lon": 127.147522
}, {
	"id": 1833514,
	"name": "Waegwan",
	"lat": 35.991749,
	"lon": 128.397324
}, {
	"id": 1833581,
	"name": "Unsal-li",
	"lat": 38.054169,
	"lon": 127.20472
}, {
	"id": 1833702,
	"name": "Umulmok",
	"lat": 38.049999,
	"lon": 127.316673
}, {
	"id": 1833742,
	"name": "Ulsan",
	"lat": 35.566669,
	"lon": 129.266663
}, {
	"id": 1833747,
	"name": "Ulsan",
	"lat": 35.53722,
	"lon": 129.316666
}, {
	"id": 1833763,
	"name": "Ulchin",
	"lat": 36.992939,
	"lon": 129.399994
}, {
	"id": 1833788,
	"name": "Uijeongbu-si",
	"lat": 37.741501,
	"lon": 127.047401
}, {
	"id": 1834885,
	"name": "Tangjin",
	"lat": 36.89444,
	"lon": 126.629723
}, {
	"id": 1835096,
	"name": "Taesal-li",
	"lat": 36.971401,
	"lon": 126.454201
}, {
	"id": 1835224,
	"name": "Daejeon",
	"lat": 36.333328,
	"lon": 127.416672
}, {
	"id": 1835235,
	"name": "Daejeon",
	"lat": 36.321388,
	"lon": 127.419724
}, {
	"id": 1835327,
	"name": "Daegu",
	"lat": 35.799999,
	"lon": 128.550003
}, {
	"id": 1835329,
	"name": "Daegu",
	"lat": 35.870281,
	"lon": 128.59111
}, {
	"id": 1835447,
	"name": "Boryeong",
	"lat": 36.349312,
	"lon": 126.597717
}, {
	"id": 1835515,
	"name": "T’aebaek",
	"lat": 37.1759,
	"lon": 128.988907
}, {
	"id": 1835518,
	"name": "Taian",
	"lat": 36.75639,
	"lon": 126.297783
}, {
	"id": 1835553,
	"name": "Suwon",
	"lat": 37.291111,
	"lon": 127.008888
}, {
	"id": 1835648,
	"name": "Suncheon",
	"lat": 34.948078,
	"lon": 127.489471
}, {
	"id": 1835650,
	"name": "Sunchang-chodeunghakgyo",
	"lat": 35.373611,
	"lon": 127.142776
}, {
	"id": 1835841,
	"name": "Republic of Korea",
	"lat": 37,
	"lon": 127.5
}, {
	"id": 1835847,
	"name": "Seoul",
	"lat": 37.583328,
	"lon": 127
}, {
	"id": 1835848,
	"name": "Seoul",
	"lat": 37.56826,
	"lon": 126.977829
}, {
	"id": 1835895,
	"name": "Seosan",
	"lat": 36.78167,
	"lon": 126.452217
}, {
	"id": 1835967,
	"name": "Jenzan",
	"lat": 36.240829,
	"lon": 128.297501
}, {
	"id": 1836034,
	"name": "Seisan-ri",
	"lat": 35.099998,
	"lon": 128.066666
}, {
	"id": 1836164,
	"name": "Songjeong",
	"lat": 35.589169,
	"lon": 129.357224
}, {
	"id": 1836208,
	"name": "Seonghwan",
	"lat": 36.915562,
	"lon": 127.131393
}, {
	"id": 1836553,
	"name": "Sokcho",
	"lat": 38.208328,
	"lon": 128.59111
}, {
	"id": 1837055,
	"name": "Yongsan",
	"lat": 37.533329,
	"lon": 126.966667
}, {
	"id": 1837217,
	"name": "Sinch’ŏn-dong",
	"lat": 37.51667,
	"lon": 127.083328
}, {
	"id": 1837640,
	"name": "Sangok",
	"lat": 34.833328,
	"lon": 127.616669
}, {
	"id": 1837660,
	"name": "Sang-ni",
	"lat": 36.251099,
	"lon": 128.106201
}, {
	"id": 1837706,
	"name": "Sangju",
	"lat": 36.415279,
	"lon": 128.160553
}, {
	"id": 1838069,
	"name": "Santyoku",
	"lat": 37.440559,
	"lon": 129.170837
}, {
	"id": 1838294,
	"name": "Shisen",
	"lat": 35.084171,
	"lon": 128.088608
}, {
	"id": 1838343,
	"name": "Pyeongtaek",
	"lat": 36.99472,
	"lon": 127.08889
}, {
	"id": 1838431,
	"name": "Pyeong",
	"lat": 37,
	"lon": 127
}, {
	"id": 1838508,
	"name": "Buyeo",
	"lat": 36.28194,
	"lon": 126.912498
}, {
	"id": 1838519,
	"name": "Busan",
	"lat": 35.133331,
	"lon": 129.050003
}, {
	"id": 1838524,
	"name": "Busan",
	"lat": 35.102779,
	"lon": 129.040283
}, {
	"id": 1838716,
	"name": "Bucheon-si",
	"lat": 37.49889,
	"lon": 126.783058
}, {
	"id": 1838722,
	"name": "Puan",
	"lat": 35.728062,
	"lon": 126.731941
}, {
	"id": 1838740,
	"name": "Boseong",
	"lat": 34.769718,
	"lon": 127.080887
}, {
	"id": 1839011,
	"name": "Beolgyo",
	"lat": 34.84494,
	"lon": 127.342934
}, {
	"id": 1839071,
	"name": "Pohang",
	"lat": 36.032219,
	"lon": 129.365005
}, {
	"id": 1839652,
	"name": "Osan",
	"lat": 37.152222,
	"lon": 127.070557
}, {
	"id": 1839726,
	"name": "Asan",
	"lat": 36.783611,
	"lon": 127.004173
}, {
	"id": 1839873,
	"name": "Okcheon",
	"lat": 36.301201,
	"lon": 127.568001
}, {
	"id": 1840179,
	"name": "Kosong",
	"lat": 38.378811,
	"lon": 128.467606
}, {
	"id": 1840211,
	"name": "Nonsan",
	"lat": 36.203892,
	"lon": 127.084717
}, {
	"id": 1840377,
	"name": "Namyang",
	"lat": 37.208889,
	"lon": 126.816673
}, {
	"id": 1840379,
	"name": "Nangen",
	"lat": 35.41,
	"lon": 127.385834
}, {
	"id": 1840421,
	"name": "Namp’o-ri",
	"lat": 35.811939,
	"lon": 126.790833
}, {
	"id": 1840454,
	"name": "Namhae",
	"lat": 34.839439,
	"lon": 127.89444
}, {
	"id": 1840536,
	"name": "Naju",
	"lat": 35.028332,
	"lon": 126.717499
}, {
	"id": 1840862,
	"name": "Munsan",
	"lat": 37.85944,
	"lon": 126.785004
}, {
	"id": 1840886,
	"name": "Mungyeong",
	"lat": 36.594582,
	"lon": 128.199463
}, {
	"id": 1840898,
	"name": "Paju",
	"lat": 37.761108,
	"lon": 126.775002
}, {
	"id": 1840942,
	"name": "Muju",
	"lat": 36.007221,
	"lon": 127.661392
}, {
	"id": 1840982,
	"name": "Muan",
	"lat": 34.989719,
	"lon": 126.47139
}, {
	"id": 1841066,
	"name": "Mokpo",
	"lat": 34.79361,
	"lon": 126.388611
}, {
	"id": 1841149,
	"name": "Miryang",
	"lat": 35.493328,
	"lon": 128.748886
}, {
	"id": 1841245,
	"name": "Masan",
	"lat": 35.208061,
	"lon": 128.572495
}, {
	"id": 1841597,
	"name": "Gyeongsangbuk-do",
	"lat": 36.333328,
	"lon": 128.75
}, {
	"id": 1841598,
	"name": "Gyeongsan-si",
	"lat": 35.82333,
	"lon": 128.737778
}, {
	"id": 1841603,
	"name": "Gyeongju",
	"lat": 35.842781,
	"lon": 129.21167
}, {
	"id": 1841610,
	"name": "Gyeonggi-do",
	"lat": 37.599998,
	"lon": 127.25
}, {
	"id": 1841775,
	"name": "Kwangyang",
	"lat": 34.975281,
	"lon": 127.589172
}, {
	"id": 1841808,
	"name": "Gwangju",
	"lat": 35.166672,
	"lon": 126.916672
}, {
	"id": 1841810,
	"name": "Gwangju",
	"lat": 37.41,
	"lon": 127.257217
}, {
	"id": 1841811,
	"name": "Gwangju",
	"lat": 35.15472,
	"lon": 126.915558
}, {
	"id": 1841909,
	"name": "Gwacheon",
	"lat": 37.42889,
	"lon": 126.989166
}, {
	"id": 1841919,
	"name": "Kuwaegwan",
	"lat": 36.015099,
	"lon": 128.394608
}, {
	"id": 1841976,
	"name": "Kurye",
	"lat": 35.209438,
	"lon": 127.464439
}, {
	"id": 1841988,
	"name": "Guri-si",
	"lat": 37.598598,
	"lon": 127.139397
}, {
	"id": 1842016,
	"name": "Kunwi",
	"lat": 36.234718,
	"lon": 128.572784
}, {
	"id": 1842025,
	"name": "Gunsan",
	"lat": 35.978611,
	"lon": 126.711388
}, {
	"id": 1842030,
	"name": "Gunpo",
	"lat": 37.3675,
	"lon": 126.946938
}, {
	"id": 1842153,
	"name": "Kinzan",
	"lat": 36.103062,
	"lon": 127.488892
}, {
	"id": 1842225,
	"name": "Gumi",
	"lat": 36.113602,
	"lon": 128.335999
}, {
	"id": 1842485,
	"name": "Goyang-si",
	"lat": 37.656391,
	"lon": 126.834999
}, {
	"id": 1842518,
	"name": "Goseong",
	"lat": 34.976311,
	"lon": 128.323608
}, {
	"id": 1842559,
	"name": "Koryŏng",
	"lat": 35.729389,
	"lon": 128.267548
}, {
	"id": 1842616,
	"name": "Gongju",
	"lat": 36.455559,
	"lon": 127.124718
}, {
	"id": 1842754,
	"name": "Kyosai",
	"lat": 34.850281,
	"lon": 128.588608
}, {
	"id": 1842781,
	"name": "Koyo",
	"lat": 34.610081,
	"lon": 127.284462
}, {
	"id": 1842800,
	"name": "Koesan",
	"lat": 36.810829,
	"lon": 127.794724
}, {
	"id": 1842859,
	"name": "Koch'ang",
	"lat": 35.433331,
	"lon": 126.699997
}, {
	"id": 1842936,
	"name": "Gimpo-si",
	"lat": 37.623611,
	"lon": 126.714172
}, {
	"id": 1842939,
	"name": "Kimje",
	"lat": 35.80167,
	"lon": 126.888893
}, {
	"id": 1842943,
	"name": "Kimhae",
	"lat": 35.234169,
	"lon": 128.881104
}, {
	"id": 1842944,
	"name": "Gimcheon",
	"lat": 36.121761,
	"lon": 128.119812
}, {
	"id": 1842966,
	"name": "Gijang",
	"lat": 35.244171,
	"lon": 129.213882
}, {
	"id": 1843082,
	"name": "Gapyeong",
	"lat": 37.831009,
	"lon": 127.51059
}, {
	"id": 1843125,
	"name": "Gangwon-do",
	"lat": 37.75,
	"lon": 128.25
}, {
	"id": 1843137,
	"name": "Gangneung",
	"lat": 37.755562,
	"lon": 128.896103
}, {
	"id": 1843163,
	"name": "Ganghwa-gun",
	"lat": 37.747219,
	"lon": 126.485558
}, {
	"id": 1843491,
	"name": "Iksan",
	"lat": 35.94389,
	"lon": 126.954437
}, {
	"id": 1843495,
	"name": "Ipyang-ni",
	"lat": 36.716671,
	"lon": 127.5
}, {
	"id": 1843502,
	"name": "Ipseokdong",
	"lat": 35.900002,
	"lon": 128.649994
}, {
	"id": 1843542,
	"name": "Inje",
	"lat": 38.065559,
	"lon": 128.173065
}, {
	"id": 1843561,
	"name": "Incheon",
	"lat": 37.450001,
	"lon": 126.416107
}, {
	"id": 1843564,
	"name": "Incheon",
	"lat": 37.453609,
	"lon": 126.731667
}, {
	"id": 1843585,
	"name": "Imsil",
	"lat": 35.61306,
	"lon": 127.279442
}, {
	"id": 1843702,
	"name": "Icheon-si",
	"lat": 37.279171,
	"lon": 127.442497
}, {
	"id": 1843841,
	"name": "Hwasun",
	"lat": 35.059441,
	"lon": 126.985001
}, {
	"id": 1843847,
	"name": "Hwaseong-si",
	"lat": 37.206821,
	"lon": 126.816902
}, {
	"id": 1843880,
	"name": "Hwapyeongri",
	"lat": 37.24754,
	"lon": 127.569901
}, {
	"id": 1844045,
	"name": "Hwacheon",
	"lat": 38.10611,
	"lon": 127.706673
}, {
	"id": 1844088,
	"name": "Hŭngjŏn",
	"lat": 36.333328,
	"lon": 128.416672
}, {
	"id": 1844106,
	"name": "Kulgwan-dong",
	"lat": 37.209721,
	"lon": 126.553062
}, {
	"id": 1844174,
	"name": "Hongseong",
	"lat": 36.600899,
	"lon": 126.665001
}, {
	"id": 1844191,
	"name": "Hongch’ŏn",
	"lat": 37.691799,
	"lon": 127.885696
}, {
	"id": 1844192,
	"name": "Hongch’ŏn",
	"lat": 36.900002,
	"lon": 127.23333
}, {
	"id": 1844308,
	"name": "Hayang",
	"lat": 35.91333,
	"lon": 128.820007
}, {
	"id": 1844533,
	"name": "Hamyang",
	"lat": 35.519379,
	"lon": 127.727661
}, {
	"id": 1844539,
	"name": "Hampyeongsaengtaegongwon",
	"lat": 35.063889,
	"lon": 126.51944
}, {
	"id": 1844751,
	"name": "Haenam",
	"lat": 34.57111,
	"lon": 126.598892
}, {
	"id": 1844788,
	"name": "Hadong-eup Samuso",
	"lat": 35.069439,
	"lon": 127.749168
}, {
	"id": 1844954,
	"name": "Jungpyong",
	"lat": 36.784721,
	"lon": 127.58194
}, {
	"id": 1845033,
	"name": "Chungju",
	"lat": 36.970558,
	"lon": 127.93222
}, {
	"id": 1845105,
	"name": "Chungcheongnam-do",
	"lat": 36.5,
	"lon": 127
}, {
	"id": 1845106,
	"name": "Chungcheongbuk-do",
	"lat": 36.75,
	"lon": 128
}, {
	"id": 1845136,
	"name": "Chuncheon",
	"lat": 37.874722,
	"lon": 127.734169
}, {
	"id": 1845275,
	"name": "Chuja-ri",
	"lat": 37.361938,
	"lon": 127.213058
}, {
	"id": 1845457,
	"name": "Jeonju",
	"lat": 35.821941,
	"lon": 127.148888
}, {
	"id": 1845519,
	"name": "Cheongsong gun",
	"lat": 36.43351,
	"lon": 129.057007
}, {
	"id": 1845585,
	"name": "Ch’ŏngnim",
	"lat": 35.991669,
	"lon": 129.404724
}, {
	"id": 1845604,
	"name": "Cheongju-si",
	"lat": 36.637218,
	"lon": 127.489723
}, {
	"id": 1845759,
	"name": "Cheonan",
	"lat": 36.806499,
	"lon": 127.152199
}, {
	"id": 1845788,
	"name": "Jeollanam-do",
	"lat": 34.75,
	"lon": 127
}, {
	"id": 1845789,
	"name": "Jeollabuk-do",
	"lat": 35.75,
	"lon": 127.25
}, {
	"id": 1846052,
	"name": "Chinju",
	"lat": 35.19278,
	"lon": 128.084717
}, {
	"id": 1846069,
	"name": "Chinhae",
	"lat": 35.149441,
	"lon": 128.659714
}, {
	"id": 1846095,
	"name": "Chinch'ŏn",
	"lat": 36.85667,
	"lon": 127.443329
}, {
	"id": 1846114,
	"name": "Jinan-gun",
	"lat": 35.791672,
	"lon": 127.425278
}, {
	"id": 1846149,
	"name": "Shitsukoku",
	"lat": 35.920559,
	"lon": 128.551392
}, {
	"id": 1846265,
	"name": "Jeju-do",
	"lat": 33.416672,
	"lon": 126.5
}, {
	"id": 1846266,
	"name": "Jeju City",
	"lat": 33.50972,
	"lon": 126.521942
}, {
	"id": 1846278,
	"name": "Teisen",
	"lat": 37.136108,
	"lon": 128.211945
}, {
	"id": 1846326,
	"name": "Changwon",
	"lat": 35.228062,
	"lon": 128.681107
}, {
	"id": 1846355,
	"name": "Changsu",
	"lat": 35.648418,
	"lon": 127.515228
}, {
	"id": 1846430,
	"name": "Changp’o",
	"lat": 35.381691,
	"lon": 128.435013
}, {
	"id": 1846589,
	"name": "Janggol",
	"lat": 36.174702,
	"lon": 127.238403
}, {
	"id": 1846735,
	"name": "Jamwon-dong",
	"lat": 37.51667,
	"lon": 127
}, {
	"id": 1846898,
	"name": "Anyang-si",
	"lat": 37.392502,
	"lon": 126.926941
}, {
	"id": 1846912,
	"name": "Anseong",
	"lat": 37.01083,
	"lon": 127.270279
}, {
	"id": 1846918,
	"name": "Ansan-si",
	"lat": 37.323608,
	"lon": 126.821938
}, {
	"id": 1846986,
	"name": "Andong",
	"lat": 36.565559,
	"lon": 128.725006
}, {
	"id": 1847050,
	"name": "Gaigeturi",
	"lat": 33.464439,
	"lon": 126.318329
}, {
	"id": 1882056,
	"name": "Sinhyeon",
	"lat": 34.8825,
	"lon": 128.626663
}, {
	"id": 1883978,
	"name": "Buyeondong",
	"lat": 38.299999,
	"lon": 128.256943
}, {
	"id": 1884249,
	"name": "Kangp’o-ri",
	"lat": 38.117779,
	"lon": 127.292503
}, {
	"id": 1885994,
	"name": "Songch’ŏni-dong",
	"lat": 35.876282,
	"lon": 127.112312
}, {
	"id": 1886130,
	"name": "Sŏnyŏl-li",
	"lat": 35.896389,
	"lon": 126.625832
}, {
	"id": 1886598,
	"name": "Yŏnmu",
	"lat": 36.12944,
	"lon": 127.099998
}, {
	"id": 1886748,
	"name": "Unam-ni",
	"lat": 36.561668,
	"lon": 127.018333
}, {
	"id": 1890085,
	"name": "Tangp’yŏng",
	"lat": 37.570621,
	"lon": 128.038773
}, {
	"id": 1892823,
	"name": "Tonghae",
	"lat": 37.543892,
	"lon": 129.106934
}, {
	"id": 1894079,
	"name": "Imsil",
	"lat": 35.749802,
	"lon": 127.89463
}, {
	"id": 1895287,
	"name": "Sŏnbawi",
	"lat": 36.63139,
	"lon": 128.335556
}, {
	"id": 1896953,
	"name": "Pubal",
	"lat": 37.291672,
	"lon": 127.507782
}, {
	"id": 1897000,
	"name": "Seongnam-si",
	"lat": 37.43861,
	"lon": 127.137779
}, {
	"id": 1897007,
	"name": "Hanam",
	"lat": 37.540001,
	"lon": 127.205559
}, {
	"id": 1897118,
	"name": "Hwado",
	"lat": 37.6525,
	"lon": 127.307503
}, {
	"id": 1897122,
	"name": "Namyangju",
	"lat": 37.636669,
	"lon": 127.214172
}, {
	"id": 1902028,
	"name": "Gyeongsangnam-do",
	"lat": 35.25,
	"lon": 128.25
}, {
	"id": 1912205,
	"name": "Ungsang",
	"lat": 35.406109,
	"lon": 129.16861
}, {
	"id": 1912209,
	"name": "Wabu",
	"lat": 37.589722,
	"lon": 127.220284
}, {
	"id": 1925936,
	"name": "Naesŏ",
	"lat": 35.249722,
	"lon": 128.520004
}, {
	"id": 1925943,
	"name": "Hwawŏn",
	"lat": 35.80167,
	"lon": 128.500824
}, {
	"id": 1930831,
	"name": "T’aep’ong-dong",
	"lat": 34.847778,
	"lon": 128.425278
}, {
	"id": 1948005,
	"name": "Kwangmyŏng",
	"lat": 37.477219,
	"lon": 126.866386
}, {
	"id": 1949757,
	"name": "Kŏje",
	"lat": 34.88472,
	"lon": 128.620834
}, {
	"id": 1979031,
	"name": "Seolman",
	"lat": 35.175282,
	"lon": 128.928329
}, {
	"id": 6367618,
	"name": "Myŏngwŏli-ri",
	"lat": 38.121941,
	"lon": 127.544724
}, {
	"id": 6367665,
	"name": "Paemŏri",
	"lat": 38.11306,
	"lon": 127.711113
}, {
	"id": 6367745,
	"name": "Ot’ani-ri",
	"lat": 38.055279,
	"lon": 127.594719
}, {
	"id": 6395804,
	"name": "Sinan",
	"lat": 34.826199,
	"lon": 126.108627
}, {
	"id": 6398879,
	"name": "Anbaeteo",
	"lat": 37.249722,
	"lon": 127.37278
}, {
	"id": 6571507,
	"name": "Samjeon-dong",
	"lat": 37.501671,
	"lon": 127.090561
}, {
	"id": 6573030,
	"name": "Namhyang-dong",
	"lat": 37.283611,
	"lon": 127.021393
}, {
	"id": 6573457,
	"name": "Wonteo",
	"lat": 37.443329,
	"lon": 127.056107
}, {
	"id": 6573747,
	"name": "Dongjinwon",
	"lat": 37.282501,
	"lon": 127.145828
}, {
	"id": 6575423,
	"name": "Haejeong",
	"lat": 37.096111,
	"lon": 127.024437
}, {
	"id": 6575822,
	"name": "Sangdeok",
	"lat": 37.212219,
	"lon": 127.17028
}, {
	"id": 6575866,
	"name": "Samga-dong",
	"lat": 37.238892,
	"lon": 127.159439
}, {
	"id": 6575883,
	"name": "Seryui-dong",
	"lat": 37.244438,
	"lon": 127.008888
}, {
	"id": 6575891,
	"name": "Yeongtongi-dong",
	"lat": 37.251389,
	"lon": 127.06472
}, {
	"id": 6576320,
	"name": "Subu-mal",
	"lat": 37.40139,
	"lon": 127.53167
}, {
	"id": 6794156,
	"name": "Hup’yŏng",
	"lat": 37.444599,
	"lon": 127.958702
}, {
	"id": 6794644,
	"name": "Oegeomusil",
	"lat": 37.064999,
	"lon": 128.540604
}, {
	"id": 6795865,
	"name": "Panghak-tong",
	"lat": 37.452099,
	"lon": 128.404694
}, {
	"id": 6795956,
	"name": "Pŏdŭlbat",
	"lat": 37.396999,
	"lon": 128.451202
}, {
	"id": 6799737,
	"name": "Hwangmae",
	"lat": 37.914902,
	"lon": 127.066704
}, {
	"id": 6800035,
	"name": "Banpobondong",
	"lat": 37.506329,
	"lon": 126.987297
}, {
	"id": 6800397,
	"name": "P’ungnap-tong",
	"lat": 37.5368,
	"lon": 127.1185
}, {
	"id": 6800516,
	"name": "Kŭmhosamga-dong",
	"lat": 37.550072,
	"lon": 127.019409
}, {
	"id": 6800746,
	"name": "Kwanghŭi-dong",
	"lat": 37.565369,
	"lon": 127.002876
}, {
	"id": 6800892,
	"name": "Sup’yŏng-dong",
	"lat": 37.594601,
	"lon": 127.143501
}, {
	"id": 6801953,
	"name": "Ganeung i dong",
	"lat": 37.74284,
	"lon": 127.035599
}, {
	"id": 6802827,
	"name": "Goenae",
	"lat": 37.507198,
	"lon": 127.320099
}, {
	"id": 6803229,
	"name": "Misa-ch’on",
	"lat": 37.515759,
	"lon": 127.429077
}, {
	"id": 6808346,
	"name": "Chaen-mal",
	"lat": 37.2981,
	"lon": 129.0746
}, {
	"id": 6811761,
	"name": "Wŏnsŏngil-tong",
	"lat": 36.809792,
	"lon": 127.161346
}, {
	"id": 6812754,
	"name": "Angol",
	"lat": 37.005699,
	"lon": 127.521004
}, {
	"id": 6812988,
	"name": "Anteo",
	"lat": 37.046101,
	"lon": 127.524002
}, {
	"id": 6816630,
	"name": "Beodang",
	"lat": 37.74902,
	"lon": 128.949524
}, {
	"id": 6877998,
	"name": "Yonghŭng",
	"lat": 35.873299,
	"lon": 127.112129
}, {
	"id": 6887688,
	"name": "Gueongmal",
	"lat": 36.226898,
	"lon": 127.292198
}, {
	"id": 6890843,
	"name": "Chogok",
	"lat": 36.0541,
	"lon": 128.177094
}, {
	"id": 6891973,
	"name": "P’yŏngsŏng",
	"lat": 36.2323,
	"lon": 128.084595
}, {
	"id": 6895286,
	"name": "Utt’ŏ-gol",
	"lat": 36.594501,
	"lon": 129.239395
}, {
	"id": 6897324,
	"name": "Chungang-dong",
	"lat": 34.844898,
	"lon": 128.423553
}, {
	"id": 6901961,
	"name": "Chidong-gol",
	"lat": 35.515518,
	"lon": 128.338211
}, {
	"id": 6901967,
	"name": "Ugok",
	"lat": 35.520199,
	"lon": 128.36235
}, {
	"id": 6903078,
	"name": "Changnyeong",
	"lat": 35.541451,
	"lon": 128.495056
}, {
	"id": 7588425,
	"name": "Changsal-li",
	"lat": 38.13792,
	"lon": 128.589996
}, {
	"id": 7588461,
	"name": "Jangjolli",
	"lat": 38.06588,
	"lon": 128.674957
}]